City_ID,City,Lat,Lng,Max Temp,Humidity,Cloudiness,Wind Speed,Country,Date
0,tubarjal,30.4999,38.216,25.93,37,35,1.53,SA,1731251026
1,edinburgh of the seven seas,-37.0676,-12.3116,15.81,87,100,10.68,SH,1731251027
2,viedma,-40.8135,-62.9967,17.01,28,100,2.54,AR,1731250977
3,stanley,54.868,-1.6985,11.82,92,75,3.09,GB,1731251029
4,ribeira grande,38.5167,-28.7,20.22,94,75,7.2,PT,1731251030
5,waitangi,-43.9535,-176.5597,11.57,94,63,1.79,NZ,1731251031
6,albardon,-31.4372,-68.5256,26.88,43,22,8.92,AR,1731250862
7,prince rupert,54.3161,-130.3201,9.83,54,100,15.43,CA,1731250862
8,st. john's,47.5649,-52.7093,2.76,75,100,14.92,CA,1731251034
9,port-aux-francais,-49.35,70.2167,4.52,77,38,8.28,TF,1731251035
10,uturoa,-16.7333,-151.4333,26.99,81,54,7.12,PF,1731251036
11,willemstad,12.1084,-68.9335,30.44,75,20,3.6,CW,1731250881
12,albany,42.6001,-73.9662,6.03,59,86,0.89,US,1731250927
13,bredasdorp,-34.5322,20.0403,17.75,62,100,4.95,ZA,1731251039
14,talnakh,69.4865,88.3972,-23.7,93,32,1.68,RU,1731250854
15,petropavlovsk-kamchatsky,53.0452,158.6483,-5.67,68,0,4.0,RU,1731251043
16,glendive,47.1053,-104.7125,0.79,86,0,2.57,US,1731251044
17,fort wellington,6.4,-57.6,31.19,61,53,4.45,GY,1731251045
18,broken hill,-31.95,141.4333,22.83,35,100,3.34,AU,1731251046
19,hadibu,12.65,54.0333,26.46,78,27,4.25,YE,1731251047
20,lovisa,60.4566,26.2251,2.94,85,36,1.15,FI,1731251048
21,springs,-26.25,28.4,19.26,94,100,3.11,ZA,1731251049
22,fort bragg,35.139,-79.006,14.39,75,20,2.06,US,1731251051
23,luganville,-15.5333,167.1667,24.64,82,60,3.28,VU,1731251052
24,grove city,39.8815,-83.093,12.64,97,100,5.14,US,1731251053
25,carnarvon,-24.8667,113.6333,20.52,73,22,12.4,AU,1731251054
26,puerto baquerizo moreno,-0.9,-89.6,23.55,88,20,4.63,EC,1731251055
27,adamstown,-25.066,-130.1015,21.96,92,100,6.18,PN,1731251056
28,longyearbyen,78.2186,15.6401,-3.09,86,75,1.03,SJ,1731251057
29,quellon,-43.1167,-73.6167,8.98,87,100,6.4,CL,1731251058
30,alamos,27.0167,-108.9333,21.37,36,0,0.76,MX,1731251059
31,swakopmund,-22.6833,14.5333,19.43,70,83,4.92,NA,1731251060
32,utrik,11.2278,169.8474,28.46,74,21,8.61,MH,1731251061
33,port blair,11.6667,92.75,28.02,83,20,1.03,IN,1731251063
34,bilibino,68.0546,166.4372,-20.29,99,100,0.41,RU,1731251064
35,papatowai,-46.5619,169.4708,8.89,87,97,6.93,NZ,1731251065
36,grytviken,-54.2811,-36.5092,0.88,70,40,2.22,GS,1731251066
37,mount isa,-20.7333,139.5,32.87,17,93,3.6,AU,1731251067
38,badger,64.8,-147.5333,-17.07,83,0,0.0,US,1731251069
39,rabo de peixe,37.8,-25.5833,19.73,99,75,6.69,PT,1731251070
40,yellowknife,62.456,-114.3525,-9.71,85,100,2.06,CA,1731251071
41,alotau,-10.3069,150.4462,24.24,95,100,1.76,PG,1731251072
42,udachny,66.4167,112.4,-19.95,98,83,2.3,RU,1731251073
43,newnham,-41.3833,147.1333,10.53,76,2,7.2,AU,1731251075
44,diawara,15.022,-12.5437,36.74,11,0,5.37,SN,1731251076
45,garachico,28.7781,-17.7646,23.06,73,0,3.09,ES,1731251077
46,margaret river,-33.95,115.0667,10.84,89,4,3.11,AU,1731251079
47,corowa,-36.0333,146.3833,12.0,48,1,2.88,AU,1731251080
48,acapulco de juarez,16.8634,-99.8901,27.9,89,20,2.06,MX,1731251014
49,port elizabeth,-33.918,25.5701,19.62,74,40,3.09,ZA,1731250986
50,howrah,22.5892,88.3103,27.0,65,0,2.57,IN,1731251083
51,santa rosa misiones,-26.8667,-56.85,32.48,23,0,1.81,PY,1731251084
52,lisakovsk,52.5369,62.4936,0.62,97,100,6.64,KZ,1731251085
53,tamanrasset,22.785,5.5228,23.95,16,0,2.57,DZ,1731251086
54,nadym,65.5333,72.5167,-9.32,93,100,11.98,RU,1731251089
55,hammerfest,70.6634,23.6821,6.25,81,75,4.63,NO,1731251090
56,tazovsky,67.4667,78.7,-9.39,93,100,8.2,RU,1731250861
57,itaituba,-4.2761,-55.9836,32.09,66,40,2.06,BR,1731250820
58,tambopata,-12.7333,-69.1833,30.94,70,0,1.03,PE,1731251093
59,ushuaia,-54.8,-68.3,7.81,81,20,3.09,AR,1731250806
60,port mathurin,-19.6833,63.4167,24.49,80,83,7.88,MU,1731251095
61,ar rutbah,33.0381,40.2848,19.04,38,1,4.86,IQ,1731251096
62,paracuru,-3.41,-39.0306,30.83,53,64,6.98,BR,1731251097
63,lagoa,39.05,-27.9833,19.09,91,99,8.68,PT,1731251098
64,birao,10.2849,22.7882,34.53,19,98,2.81,CF,1731251099
65,blackmans bay,-43.0167,147.3167,7.63,83,32,2.85,AU,1731251100
66,invercargill,-46.4,168.35,8.9,91,100,4.47,NZ,1731251102
67,new norfolk,-42.7826,147.0587,8.29,97,7,1.42,AU,1731251103
68,penzberg,47.75,11.3833,5.99,92,33,0.96,DE,1731250940
69,thompson,55.7435,-97.8558,-2.91,86,100,1.03,CA,1731251105
70,ushibukamachi,32.1906,130.0228,19.09,89,100,5.48,JP,1731251106
71,al ghayzah,16.2079,52.176,27.48,55,4,4.64,YE,1731251107
72,burang,30.25,81.1667,-0.4,78,26,1.84,CN,1731251108
73,rethymno,35.3647,24.4714,14.98,72,77,4.59,GR,1731251109
74,georgetown,5.4112,100.3354,28.96,78,20,1.03,MY,1731250914
75,nea kallikrateia,40.3167,23.0667,14.36,65,100,4.51,GR,1731251111
76,alofi,-19.0595,-169.9187,23.94,78,75,6.17,NU,1731251112
77,sorong,-0.8833,131.25,26.42,86,100,2.58,ID,1731251113
78,port lincoln,-34.7333,135.8667,15.72,83,54,6.7,AU,1731251115
79,yaguajay,22.3272,-79.2378,26.89,82,94,7.71,CU,1731251116
80,puerto natales,-51.7236,-72.4875,11.25,50,75,11.83,CL,1731250840
81,chonchi,-42.6128,-73.8092,12.84,91,100,4.29,CL,1731251118
82,vilyuysk,63.7553,121.6247,-12.8,97,97,1.86,RU,1731251119
83,avarua,-21.2078,-159.775,22.03,68,20,2.57,CK,1731251120
84,mil'kovo,55.6078,37.7956,4.08,48,14,2.58,RU,1731251121
85,antofagasta,-23.65,-70.4,19.6,63,9,3.51,CL,1731251005
86,sao francisco,-15.9486,-44.8644,29.36,54,98,1.8,BR,1731251124
87,olonkinbyen,70.9221,-8.7187,1.64,99,100,9.14,SJ,1731251125
88,taoudenni,22.6783,-3.9836,32.75,8,0,5.32,ML,1731251126
89,saipan,15.1355,145.701,28.39,86,20,5.14,MP,1731251063
90,nalut,30.3333,10.85,24.78,21,100,6.91,LY,1731251128
91,guerrero negro,27.9769,-114.0611,16.81,63,0,0.8,MX,1731251129
92,al bawiti,28.3492,28.8659,21.2,34,0,4.0,EG,1731251130
93,kerikeri,-35.2268,173.9474,13.84,91,82,1.62,NZ,1731251131
94,kapuskasing,49.4169,-82.4331,5.05,87,75,2.57,CA,1731251101
95,klyuchi,52.2667,79.1667,0.63,97,100,9.74,RU,1731251133
96,puerto ayora,-0.7393,-90.3518,23.08,81,90,3.58,EC,1731251134
97,hoshangabad,22.75,77.7167,22.93,50,0,1.34,IN,1731251135
98,west island,-12.1568,96.8225,26.99,78,100,8.75,CC,1731251137
99,yenotayevka,47.2456,47.0281,6.96,69,22,3.15,RU,1731251138
100,salavan,15.7167,106.4167,21.36,92,53,0.97,LA,1731251139
101,baoding,38.8511,115.4903,11.29,75,78,2.69,CN,1731251140
102,grums,59.3466,13.1091,3.28,93,100,3.09,SE,1731251056
103,codrington,-38.2667,141.9667,7.1,92,5,3.62,AU,1731251142
104,zaragoza,41.6561,-0.8773,18.34,55,0,7.2,ES,1731250888
105,dubbo,-32.25,148.6167,19.07,68,100,5.14,AU,1731251145
106,cadereyta,25.5833,-99.9833,21.4,74,93,0.79,MX,1731251146
107,joroinen,62.1782,27.8317,-0.36,76,63,1.41,FI,1731251147
108,punta arenas,-53.15,-70.9167,11.06,50,20,10.29,CL,1731251121
109,dunedin,-45.8742,170.5036,12.11,58,59,2.24,NZ,1731251149
110,ilulissat,69.2167,-51.1,-3.99,80,100,5.14,GL,1731251150
111,bismarck,46.8083,-100.7837,2.48,100,100,2.57,US,1731251117
112,bethel,41.3712,-73.414,9.13,56,0,0.89,US,1731251153
113,colonia,50.9333,6.95,11.18,84,100,0.51,DE,1731251154
114,malanje,-9.5402,16.341,23.3,83,96,1.31,AO,1731251156
115,howard springs,-12.497,131.047,28.95,78,78,0.73,AU,1731251157
116,wailua homesteads,22.0669,-159.378,23.44,96,75,4.63,US,1731251158
117,tura,25.5198,90.2201,20.25,91,0,1.56,IN,1731251159
118,bamboo flat,11.7,92.7167,28.05,83,20,1.03,IN,1731251160
119,ofunato,39.0717,141.7167,12.83,91,98,2.5,JP,1731251161
120,dudinka,69.4058,86.1778,-22.2,96,80,3.34,RU,1731250913
121,weno,7.4515,151.8468,27.97,78,40,1.54,FM,1731251163
122,iqaluit,63.7506,-68.5145,-4.15,67,100,7.6,CA,1731250875
123,machico,32.7,-16.7667,29.28,83,40,4.12,PT,1731251166
124,remire-montjoly,4.9167,-52.2667,29.02,84,75,1.03,GF,1731251167
125,katsuura,35.1333,140.3,19.3,87,100,2.58,JP,1731251168
126,la passe,45.5549,-0.8967,17.31,70,69,2.45,FR,1731251169
127,susuman,62.7833,148.1667,-31.41,93,91,1.39,RU,1731251170
128,guiren,33.6697,118.1889,14.45,84,2,2.27,CN,1731251106
129,peniche,39.3558,-9.3811,20.11,86,84,7.05,PT,1731251172
130,praia da vitoria,38.7333,-27.0667,22.14,78,40,4.47,PT,1731251173
131,sungai penuh,-2.0833,101.3833,19.52,98,100,0.49,ID,1731251174
132,ust-nera,64.5667,143.2,-24.74,100,93,1.73,RU,1731251175
133,qaqortoq,60.7167,-46.0333,0.67,90,100,4.72,GL,1731251176
134,vernon,50.2581,-119.2691,5.97,91,47,0.51,CA,1731251177
135,ghadamis,30.1337,9.5007,26.34,20,100,5.78,LY,1731251178
136,egilsstadir,65.2653,-14.3948,8.95,71,75,6.69,IS,1731251179
137,lihue,21.9789,-159.3672,23.77,100,75,4.63,US,1731251181
138,san luis de la loma,17.2706,-100.8939,27.9,78,48,0.14,MX,1731251182
139,ornskoldsvik,63.2909,18.7153,2.53,100,100,3.09,SE,1731251183
140,primero de mayo,-32.2552,-58.4228,30.53,24,0,5.91,AR,1731251184
141,haimen,23.1935,116.6142,22.59,83,87,5.08,CN,1731251185
142,gadzhiyevo,69.2551,33.3362,2.96,95,100,4.32,RU,1731251144
143,hillsborough,37.5741,-122.3794,10.92,87,40,1.54,US,1731251187
144,cockburn town,21.4612,-71.1419,27.84,77,100,9.94,TC,1731251188
145,bandarbeyla,9.4942,50.8122,26.72,78,75,8.17,SO,1731251189
146,aasiaat,68.7098,-52.8699,-5.34,88,100,0.26,GL,1731251190
147,parauna,-16.9478,-50.4486,28.56,55,0,1.89,BR,1731251192
148,nuevitas,21.5453,-77.2644,27.25,85,48,5.09,CU,1731251193
149,vadso,70.0744,29.7487,4.09,87,20,5.14,NO,1731251194
150,leava,-14.3,-178.1667,26.91,81,88,6.53,WF,1731251195
151,anadyr,64.75,177.4833,-5.72,92,100,3.0,RU,1731251196
152,darwin,-12.4611,130.8418,28.99,70,89,2.57,AU,1731251198
153,touros,-5.1989,-35.4608,29.21,63,55,7.6,BR,1731251199
154,geraldton,-28.7667,114.6,18.23,82,20,7.2,AU,1731251200
155,kodiak,57.79,-152.4072,3.73,87,100,8.23,US,1731251201
156,al kharijah,25.4514,30.5464,23.42,30,0,4.33,EG,1731251203
157,villa gesell,-37.2639,-56.973,21.76,63,100,3.18,AR,1731251204
158,nicoya,10.1483,-85.452,24.56,92,100,1.3,CR,1731251161
159,lensk,60.7253,114.9278,-12.94,98,99,2.22,RU,1731251206
160,nemuro,43.3236,145.575,11.33,84,100,9.63,JP,1731251207
161,petauke,-14.2426,31.3253,34.08,19,69,2.12,ZM,1731251208
162,ancud,-41.8697,-73.8203,10.41,86,93,8.41,CL,1731251209
163,mount gambier,-37.8333,140.7667,8.15,93,32,2.43,AU,1731251048
164,ulladulla,-35.35,150.4667,16.44,73,100,1.92,AU,1731251211
165,semirara,12.0697,121.3986,27.62,79,75,4.32,PH,1731251212
166,vila velha,-20.3297,-40.2925,26.97,74,75,9.26,BR,1731251213
167,yinchuan,38.4681,106.2731,12.0,48,98,2.3,CN,1731251214
168,nova sintra,14.8667,-24.7167,27.26,70,100,5.79,CV,1731251216
169,longboat key,27.4125,-82.659,27.85,73,20,4.63,US,1731251167
170,hawaiian paradise park,19.5933,-154.9731,19.94,88,40,2.57,US,1731251218
171,akureyri,65.6835,-18.0878,4.68,89,93,3.03,IS,1731251219
172,nazarabad,35.9521,50.6075,14.45,39,17,1.52,IR,1731251220
173,minas de marcona,-15.2119,-75.1103,19.81,56,36,4.09,PE,1731251221
174,brookings,44.3114,-96.7984,7.25,97,100,3.6,US,1731251075
175,xai-xai,-25.0519,33.6442,26.31,73,94,6.79,MZ,1731251223
176,nishifukuma,33.7667,130.4667,17.0,96,100,1.82,JP,1731251224
177,neiafu,-18.65,-173.9833,25.38,78,75,6.17,TO,1731251225
178,robertsport,6.7533,-11.3686,28.35,71,33,4.78,LR,1731251226
179,barra do garcas,-15.89,-52.2567,32.32,62,75,1.03,BR,1731251167
180,college,64.8569,-147.8028,-17.03,81,0,0.0,US,1731251229
181,iskateley,67.6803,53.1512,-9.21,85,15,3.31,RU,1731251230
182,tomsk,58.5,82.5,-1.93,96,100,6.01,RU,1731251220
183,karratha,-20.7377,116.8463,27.63,51,20,5.51,AU,1731251232
184,san miguel de salinas,37.9797,-0.789,23.52,47,38,2.43,ES,1731251233
185,enoch,37.7733,-113.0244,6.93,80,0,2.06,US,1731251234
186,santa cruz de tenerife,28.4682,-16.2546,30.78,21,0,3.6,ES,1731251235
187,vila franca do campo,37.7167,-25.4333,20.23,99,100,3.82,PT,1731251236
188,kudat,6.8837,116.8477,26.68,82,13,0.83,MY,1731251237
189,pauini,-7.7136,-66.9764,27.8,73,100,1.25,BR,1731251061
190,coracao de maria,-12.2333,-38.75,32.9,38,97,1.21,BR,1731251239
191,shalya,57.2471,58.7298,-6.99,85,100,4.36,RU,1731251241
192,altay,47.8667,88.1167,-3.08,98,100,2.27,CN,1731251115
193,hobyo,5.3505,48.5268,27.52,76,9,8.71,SO,1731251243
194,sisimiut,66.9395,-53.6735,-5.31,88,100,3.7,GL,1731251244
195,arraial do cabo,-22.9661,-42.0278,24.92,69,40,4.63,BR,1731251245
196,khailar,25.35,78.5333,25.53,37,0,1.6,IN,1731251246
197,murray bridge,-35.1167,139.2667,15.01,75,100,2.77,AU,1731251247
198,north bend,43.4065,-124.2243,9.59,100,100,3.09,US,1731251248
199,amahai,-3.3333,128.9167,26.37,85,99,1.92,ID,1731251249
200,kalmunai,7.4167,81.8167,26.66,80,13,4.36,LK,1731251250
201,verkhnevilyuysk,63.4453,120.3167,-12.49,97,99,2.16,RU,1731251251
202,jaicos,-7.3592,-41.1378,40.35,22,74,1.54,BR,1731251253
203,saint-philippe,-21.3585,55.7679,24.99,87,38,4.65,RE,1731251254
204,glace bay,46.1969,-59.957,5.55,69,13,5.36,CA,1731251256
205,cabo san lucas,22.8909,-109.9124,24.31,64,0,1.03,MX,1731251163
206,lethem,3.3803,-59.7968,36.18,34,97,4.65,GY,1731251258
207,jamestown,42.097,-79.2353,10.01,55,100,3.6,US,1731251186
208,reggane,26.7158,0.1714,31.18,18,100,2.21,DZ,1731251190
209,znamenka,52.4167,41.4311,4.04,70,87,2.95,RU,1731251263
210,moussoro,13.6408,16.4901,32.74,13,58,5.18,TD,1731251264
211,kailua-kona,19.6406,-155.9956,21.27,75,0,2.06,US,1731251265
212,tommot,58.9564,126.2925,-10.14,95,100,2.25,RU,1731251266
213,yuryuzan',54.8633,58.4219,-10.27,97,98,0.59,RU,1731251267
214,lata,40.1629,-8.3327,20.15,63,83,3.44,PT,1731251268
215,berezovyy,51.6667,135.7,-1.72,51,61,6.02,RU,1731251269
216,kayangel,8.0823,134.7173,28.95,73,12,2.21,PW,1731251270
217,keflavik,64.0049,-22.5624,7.24,87,100,14.4,IS,1731251271
218,isafjordur,66.0755,-23.124,7.02,65,75,7.2,IS,1731251272
219,chelak,39.9203,66.8611,8.42,55,2,1.37,UZ,1731251273
220,hamilton,39.1834,-84.5333,16.47,95,100,5.66,US,1731250983
221,kone,-21.0595,164.8658,21.55,80,7,0.94,NC,1731251275
222,hermanus,-34.4187,19.2345,18.78,70,100,5.45,ZA,1731251276
223,darchula,29.8412,80.5287,11.44,79,100,0.08,NP,1731251277
224,muisne,0.6,-80.0333,24.49,77,100,3.02,EC,1731251279
225,lebu,-37.6167,-73.65,14.01,69,11,3.8,CL,1731251280
226,bridgewater,44.3835,-64.5155,5.35,61,10,5.36,CA,1731251281
227,macon,39.8667,-88.9668,15.03,67,100,6.17,US,1731251282
228,cabedelo,-6.9811,-34.8339,30.37,61,26,6.83,BR,1731251283
229,sungailiat,-1.85,106.1333,26.5,86,90,1.55,ID,1731251284
230,taltal,-25.4,-70.4833,19.26,69,1,2.77,CL,1731251285
231,celestun,20.8667,-90.4,28.16,73,100,2.2,MX,1731251286
232,veraval,20.9,70.3667,27.79,64,0,2.3,IN,1731251287
233,esquel,-42.9,-71.3167,8.76,75,69,5.39,AR,1731251152
234,alice springs,-23.7,133.8833,23.75,57,75,7.72,AU,1731251289
235,bikenibeu village,1.3673,173.1241,27.79,76,98,5.11,KI,1731251290
236,vilyuchinsk,52.9306,158.4028,-3.62,78,100,2.63,RU,1731251291
237,hithadhoo,-0.6,73.0833,28.43,71,35,5.3,MV,1731251293
238,proletarsk,46.7031,41.7192,7.3,62,0,2.3,RU,1731251294
239,tiksi,71.6872,128.8694,-18.86,99,86,1.89,RU,1731251295
240,diplo,24.4667,69.584,28.24,36,0,4.15,PK,1731251296
241,east london,-33.0153,27.9116,17.49,83,100,3.2,ZA,1731251297
242,taksimo,56.3444,114.8794,-14.39,90,94,0.94,RU,1731251299
243,mersing,2.4312,103.8405,25.49,92,85,1.03,MY,1731251300
244,tazacorte,28.629,-17.9293,24.54,73,0,3.09,ES,1731251301
245,sodra sandby,56.5667,16.6167,7.16,87,100,3.07,SE,1731251302
246,nouadhibou,20.931,-17.0347,24.0,49,0,3.24,MR,1731251303
247,paros,37.0833,25.15,16.28,63,20,10.29,GR,1731251304
248,dakoro,14.5106,6.765,30.03,11,95,5.16,NE,1731251305
249,atafu village,-8.5421,-172.5159,28.34,67,63,5.44,TK,1731251306
250,namibe,-15.1961,12.1522,22.89,69,88,5.96,AO,1731251307
251,tres lagoas,-20.7511,-51.6783,30.29,53,8,3.79,BR,1731251228
252,prestea,5.4327,-2.1428,29.9,64,93,2.49,GH,1731251309
253,dapa,9.7594,126.0531,27.99,80,68,5.4,PH,1731251310
254,ugoofaaru,5.6667,73.0,28.44,68,11,2.25,MV,1731251312
255,newcastle,-32.9272,151.7765,20.4,85,100,6.17,AU,1731251313
256,hinton,53.4001,-117.5857,-2.45,88,63,1.9,CA,1731251120
257,hami,42.8,93.45,7.95,44,0,2.61,CN,1731251315
258,lompoc,34.6391,-120.4579,6.4,65,0,2.57,US,1731251316
259,skowhegan,44.7651,-69.7192,6.28,51,55,2.36,US,1731251317
260,fairfield glade,36.0004,-84.8863,16.86,67,100,5.14,US,1731251318
261,richards bay,-28.783,32.0377,22.03,85,96,2.44,ZA,1731251319
262,ciudad lazaro cardenas,17.9583,-102.2,27.22,76,81,1.23,MX,1731251320
263,nebraska city,40.6767,-95.8592,7.74,88,0,6.17,US,1731251165
264,nuuk,64.1835,-51.7216,-2.66,86,75,3.6,GL,1731251322
265,altai,46.3722,96.2583,-6.4,56,8,14.53,MN,1731251323
266,nar'yan-mar,67.6713,53.087,-8.89,84,17,3.4,RU,1731251325
267,tralee,52.2704,-9.7026,12.32,84,100,2.09,IE,1731251326
268,guanhaes,-18.775,-42.9325,23.11,84,77,2.21,BR,1731251327
269,enewetak,11.3474,162.3373,28.59,78,100,9.29,MH,1731251328
270,sibolga,1.7427,98.7792,25.51,85,68,0.65,ID,1731251329
271,ventspils,57.3894,21.5606,4.96,93,100,1.54,LV,1731251330
272,al fallujah,33.3538,43.7795,24.38,31,92,1.5,IQ,1731251331
273,malvan,16.0667,73.4667,27.88,66,6,3.94,IN,1731251332
274,whitehorse,60.7161,-135.0538,-3.16,79,100,5.36,CA,1731251333
275,mombetsu,44.3525,143.3525,12.11,67,100,7.04,JP,1731251334
276,kamaishi,39.2667,141.8833,12.39,90,97,2.5,JP,1731251335
277,ola,59.5833,151.2833,-12.91,68,100,4.61,RU,1731251336
278,afaahiti,-17.75,-149.2833,24.17,87,99,8.24,PF,1731251338
279,biltine,14.5333,20.9167,33.6,16,100,3.23,TD,1731251339
280,chernyshevskiy,63.0128,112.4714,-11.17,93,100,3.55,RU,1731251340
281,al qusayr,34.5091,36.5798,18.32,36,35,5.17,SY,1731257318
282,jeddah,21.5169,39.2192,30.92,58,0,3.6,SA,1731257169
283,shevchenko,48.5,35.0,6.55,61,37,2.12,UA,1731257320
284,cidreira,-30.1811,-50.2056,21.59,63,0,7.43,BR,1731257322
285,motueka,-41.1333,173.0167,12.28,73,25,4.14,NZ,1731257323
286,den chai,17.9837,100.0522,24.47,96,0,0.67,TH,1731257324
287,trapani,37.8333,12.6667,17.41,88,40,2.57,IT,1731257325
288,velikiy ustyug,60.7644,46.3106,0.61,94,99,4.05,RU,1731257326
289,dali,25.7,100.1833,11.36,83,0,1.46,CN,1731257327
290,miyako,39.6367,141.9525,10.37,86,64,2.23,JP,1731257329
291,xining,36.6167,101.7667,6.51,65,90,1.68,CN,1731257330
292,hengchun,22.0042,120.7439,25.65,83,42,7.67,TW,1731257331
293,kitimat,54.0524,-128.6534,1.06,29,100,0.85,CA,1731257333
294,vorgashor,67.5833,63.95,-15.86,98,82,4.09,RU,1731256864
295,mishan,45.55,131.8833,-0.22,69,0,3.63,CN,1731257335
296,saint-jean-d'angely,45.95,-0.5167,14.15,88,99,2.24,FR,1731257336
297,sitka,57.0531,-135.33,7.94,53,100,10.29,US,1731257337
298,tondano,1.3038,124.9112,20.05,99,32,0.22,ID,1731257338
299,kruisfontein,-34.0033,24.7314,15.13,78,77,3.44,ZA,1731257339
300,fuling,29.7022,107.3919,18.78,75,49,0.86,CN,1731257340
301,tanah merah,5.8,102.15,23.7,99,100,0.63,MY,1731257341
302,osakarovka,50.565,72.5692,-0.61,96,100,9.95,KZ,1731257342
303,goure,13.9835,10.2704,26.44,15,68,4.07,NE,1731257344
304,kingston,17.997,-76.7936,30.65,70,20,4.12,JM,1731256746
305,macusani,-14.0833,-70.4333,11.35,51,73,4.39,PE,1731257346
306,kirando,-7.4167,30.6,24.92,75,29,4.19,TZ,1731257347
307,aydincik,36.1437,33.3202,15.85,87,91,4.09,TR,1731257348
308,crane,31.3974,-102.3501,19.28,16,0,3.52,US,1731257303
309,gustavia,17.8962,-62.8498,29.12,86,98,2.24,BL,1731257350
310,encarnacion,-27.3333,-55.9,30.29,42,0,2.57,PY,1731257351
311,kapit,2.0167,112.9333,22.84,99,100,0.45,MY,1731257352
312,igarka,67.4667,86.5833,-11.33,94,100,4.84,RU,1731257353
313,aliaga,15.5167,120.8667,24.55,95,100,2.17,PH,1731257355
314,sousse,35.8254,10.637,20.88,73,40,1.54,TN,1731257356
315,nizhneangarsk,55.7833,109.55,-8.27,78,100,2.6,RU,1731257357
316,lerwick,60.1545,-1.1494,10.13,82,100,7.58,GB,1731257358
317,mbandaka,0.0487,18.2603,21.54,92,100,1.16,CD,1731257359
318,afega,-13.7973,-171.8531,26.0,94,75,3.09,WS,1731257360
319,filadelfia,39.9523,-75.1638,14.56,46,100,3.6,US,1731257190
320,am timan,11.0297,20.2827,29.85,26,99,1.78,TD,1731257362
321,shagonar,51.5333,92.8,-2.38,51,100,0.72,RU,1731257363
322,uliastay,47.7417,96.8444,-11.13,74,8,3.65,MN,1731257364
323,ouezzane,34.7971,-5.5822,20.1,51,1,2.56,MA,1731257365
324,fort st. john,56.2499,-120.8529,-4.06,86,75,3.09,CA,1731257366
325,castel,49.791,2.4548,7.43,82,37,2.76,FR,1731257368
326,three rivers,41.9439,-85.6325,13.25,94,100,3.6,US,1731257369
327,hollidaysburg,40.4273,-78.3889,12.04,55,100,4.63,US,1731257365
328,ashland,40.8167,-82.2665,12.37,97,100,7.01,US,1731257206
329,sao caetano de odivelas,-0.75,-48.02,31.98,54,59,5.93,BR,1731257372
330,arkhangel'sk,64.5401,40.5433,2.06,93,75,2.0,RU,1731257267
331,black point,-34.6187,137.8972,17.41,75,95,3.4,AU,1731257374
332,san julian,21.0167,-102.1667,23.24,41,16,0.87,MX,1731257375
333,newman,37.3138,-121.0208,15.71,34,99,0.43,US,1731257376
334,pinhao,-25.6956,-51.6597,26.49,42,6,2.16,BR,1731257378
335,aldan,58.6031,125.3894,-13.14,95,100,2.48,RU,1731257379
336,vorkuta,67.5,64.0,-16.01,98,84,4.16,RU,1731257380
337,jangaon,17.7167,79.1833,22.08,60,6,2.88,IN,1731257381
338,shohimardon,39.9839,71.8028,5.74,66,65,1.57,UZ,1731257382
339,yuzhno-kurilsk,44.0306,145.8556,8.52,82,99,5.96,RU,1731257322
340,jumla,29.2747,82.1838,5.99,91,31,1.36,NP,1731257268
341,crucecita,-28.95,-58.9833,32.94,27,0,3.79,AR,1731257385
342,mwene-ditu,-7.0,23.45,19.17,97,79,1.98,CD,1731257386
343,saint-pierre,-21.3393,55.4781,25.82,69,0,1.54,RE,1731257309
344,port macquarie,-31.4333,152.9167,20.6,88,49,1.34,AU,1731257388
345,chui,-33.6971,-53.4616,24.03,49,0,4.29,UY,1731257390
346,mwingi,-0.9344,38.0601,22.46,71,94,2.55,KE,1731257391
347,labrador city,52.9463,-66.9114,0.1,80,100,5.36,CA,1731257298
348,nahrin,36.0649,69.1334,10.91,85,100,0.8,AF,1731257393
349,pandan,14.0453,124.1694,26.6,86,100,5.76,PH,1731257394
350,rabaul,-4.1967,152.1721,26.3,81,100,2.37,PG,1731257395
351,pampa,35.5362,-100.9599,13.02,58,0,5.14,US,1731257396
352,port alfred,-33.5906,26.891,15.66,97,98,4.35,ZA,1731257397
353,port saint john's,-31.6229,29.5448,17.5,92,100,1.46,ZA,1731257398
354,eyl,7.9803,49.8164,26.98,75,32,8.2,SO,1731257281
355,sinop,41.7711,34.8709,8.63,76,96,1.58,TR,1731257199
356,metlili chaamba,32.2667,3.6333,20.67,38,4,5.28,DZ,1731257403
357,olyokminsk,60.3736,120.4264,-16.17,99,91,1.49,RU,1731257404
358,mglin,53.0591,32.8475,5.0,90,100,2.25,RU,1731257405
359,mount pearl,47.5166,-52.7813,2.2,72,75,14.4,CA,1731257406
360,shixing,24.9482,114.0657,18.74,83,51,1.27,CN,1731257407
361,orel,52.9658,36.0803,5.11,69,100,2.65,RU,1731257408
362,long beach,33.767,-118.1892,18.47,53,86,0.89,US,1731257387
363,saint-francois,46.4154,3.9054,13.69,89,0,2.06,FR,1731257410
364,menongue,-14.6585,17.691,22.51,62,74,1.15,AO,1731257412
365,lindi,-10.0,39.7167,25.21,81,0,2.32,TZ,1731257413
366,callao,-12.0667,-77.15,22.16,60,0,5.66,PE,1731257345
367,molde,62.7375,7.1591,2.91,87,40,3.09,NO,1731257415
368,santiago de cuba,20.0247,-75.8219,30.06,66,20,2.57,CU,1731257416
369,pangody,65.85,74.4859,-8.01,93,100,10.29,RU,1731257417
370,aral,40.5156,81.2636,9.14,49,0,3.99,CN,1731257418
371,selfoss,63.9331,-20.9971,7.25,82,93,10.42,IS,1731256884
372,murun-kuren,49.6342,100.1625,-6.32,62,22,1.55,MN,1731257420
373,somerset,40.5668,-74.5496,13.25,44,0,1.54,US,1731257421
374,kavaratti,10.5669,72.642,28.24,69,93,1.75,IN,1731256978
375,khanpur mahar,27.8436,69.4137,28.7,18,0,4.65,PK,1731257424
376,juneau,58.3019,-134.4197,3.56,100,100,3.22,US,1731257425
377,tanout,14.9709,8.8879,25.53,17,6,4.29,NE,1731257427
378,axim,4.8699,-2.2405,27.21,78,56,2.75,GH,1731257428
379,vacaria,-28.5122,-50.9339,24.78,51,1,2.86,BR,1731257429
380,kertih,4.5141,103.4483,25.05,94,92,0.0,MY,1731257289
381,tsiombe,-25.3,45.4833,23.7,83,85,0.86,MG,1731257432
382,kandyagash,49.4744,57.4233,0.65,95,100,5.99,KZ,1731257433
383,aksu,41.1231,80.2644,8.76,51,0,2.39,CN,1731257434
384,poronaysk,49.2167,143.1167,4.42,59,73,7.7,RU,1731257435
385,puerto aysen,-45.4,-72.7,9.16,96,100,2.08,CL,1731257291
386,ain kercha,35.9247,6.6953,14.67,71,84,3.33,DZ,1731257437
387,tieli,46.95,128.05,-1.99,45,3,2.35,CN,1731257438
388,meadow lakes,61.6247,-149.6011,3.93,58,0,6.17,US,1731257439
389,bataipora,-22.2953,-53.2711,33.69,35,10,2.92,BR,1731257440
390,barcelos,41.5388,-8.6151,16.71,94,98,1.28,PT,1731257416
391,puerto lempira,15.2667,-83.7667,31.08,66,40,4.12,HN,1731257442
392,chorfa,36.3651,4.3264,16.77,73,66,2.76,DZ,1731257443
393,cabinda,-5.55,12.2,28.08,78,75,3.09,AO,1731257444
394,road town,18.4167,-64.6167,28.02,78,20,1.54,VG,1731257445
395,maiurno,13.4167,33.6667,33.7,27,30,4.17,SD,1731257447
396,oristano,39.9,8.6,16.78,78,60,1.42,IT,1731257449
397,ad dilam,23.9915,47.1627,25.61,28,36,4.65,SA,1731257450
398,tvoroyri,61.5556,-6.8111,8.84,87,63,13.13,FO,1731257451
399,watertown,42.3709,-71.1828,12.81,35,0,7.2,US,1731257452
400,laguna,38.421,-121.4238,9.1,81,0,0.0,US,1731256914
401,santander,43.4647,-3.8044,16.37,94,75,1.54,ES,1731257454
402,the pas,53.8251,-101.2541,1.01,100,100,1.54,CA,1731257455
403,graaff-reinet,-32.2522,24.5308,12.73,80,69,10.02,ZA,1731257457
404,dondo,-19.6094,34.7431,26.73,78,1,4.58,MZ,1731257458
405,usogorsk,63.4106,48.6872,-3.46,92,87,1.93,RU,1731257460
406,carlsbad,33.1581,-117.3506,21.9,40,61,1.34,US,1731257462
407,margate,51.3813,1.3862,9.93,84,48,3.02,GB,1731256866
408,ust'-ilimsk,58.0006,102.6619,-8.27,87,90,2.21,RU,1731257464
409,brokopondo,4.75,-55.1667,32.69,51,3,1.37,SR,1731257465
410,canubing no 2,13.35,121.1333,26.03,84,99,2.66,PH,1731257466
411,hasaki,35.7333,140.8333,17.6,88,100,2.97,JP,1731256875
412,dunkirk,51.05,2.3667,10.03,85,32,3.1,FR,1731257468
413,natal,-5.795,-35.2094,30.12,51,20,7.72,BR,1731256913
414,inhambane,-23.865,35.3833,25.99,89,40,6.17,MZ,1731257471
415,koshki,54.2091,50.4677,-0.76,79,88,4.61,RU,1731257472
416,basco,20.4487,121.9702,26.54,88,100,9.45,PH,1731257473
417,sur,22.5667,59.5289,27.32,59,0,2.29,OM,1731257474
418,mili,6.0815,171.735,28.28,77,88,6.91,MH,1731257475
419,clarkston heights-vineland,46.3874,-117.083,8.37,87,100,1.54,US,1731257476
420,murashi,59.3999,48.9615,-3.38,88,74,3.23,RU,1731257034
421,eruh,37.7517,42.1811,10.91,25,64,3.22,TR,1731257478
422,yeniseysk,58.4497,92.1703,-2.71,80,100,4.72,RU,1731256960
423,gordonvale,-17.0936,145.7842,24.88,89,77,1.36,AU,1731257481
424,corner brook,48.9667,-57.9484,2.46,61,10,6.31,CA,1731257389
425,baukau,51.5526,7.2042,10.27,91,99,1.18,DE,1731257483
426,surgut,61.25,73.4167,-9.9,92,75,8.0,RU,1731257484
427,ourinhos,-22.9789,-49.8706,29.64,43,0,2.2,BR,1731257485
428,utraula,27.3167,82.4167,23.62,52,0,1.85,IN,1731257487
429,dawson creek,55.7666,-120.2362,-5.2,80,0,1.03,CA,1731257324
430,haiku-pauwela,20.9219,-156.3051,23.36,78,20,6.71,US,1731256924
431,griffith,41.5284,-87.4237,15.73,89,100,5.14,US,1731257491
432,belmonte,-15.8631,-38.8828,22.8,96,97,7.68,BR,1731257492
433,twon-brass,4.3151,6.2418,27.05,74,43,3.13,NG,1731257493
434,sao felix do xingu,-6.6447,-51.995,36.57,30,99,1.62,BR,1731257494
435,beinamar,8.6698,15.3813,26.18,32,4,1.77,TD,1731257495
436,kismayo,-0.3582,42.5454,27.05,82,64,4.93,SO,1731257496
437,sucua,-2.4667,-78.1667,24.41,78,75,1.54,EC,1731257497
438,rosarno,38.4841,15.979,15.5,73,30,2.99,IT,1731257498
439,cannonvale,-20.2833,148.7,24.66,78,41,4.26,AU,1731257500
440,port said,31.2565,32.2841,22.99,49,20,3.6,EG,1731257501
441,alesund,62.4723,6.1549,9.86,74,100,2.82,NO,1731257503
442,whitecourt,54.1502,-115.6855,-4.42,93,75,2.06,CA,1731257504
443,hailey,43.5196,-114.3153,6.07,65,75,3.09,US,1731257396
444,tucupita,9.0622,-62.051,37.08,34,81,2.66,VE,1731257506
445,jinchang,38.4953,102.1739,7.16,49,97,4.44,CN,1731257507
446,imzouren,35.1463,-3.8497,18.6,88,20,3.6,MA,1731257508
447,kasaragod,12.5,75.0,25.0,80,95,1.7,IN,1731257509
448,heroica caborca,30.7167,-112.15,21.87,17,6,1.55,MX,1731257510
449,oranjemund,-28.55,16.4333,16.91,77,35,7.02,NA,1731256964
450,pecos,31.4229,-103.4932,15.05,25,0,1.54,US,1731257514
451,vershino-darasunskiy,52.35,115.5167,-8.66,75,100,1.49,RU,1731257515
452,den burg,53.0542,4.7972,10.98,82,100,2.06,NL,1731257517
453,rongelap,11.1635,166.8941,27.66,81,29,9.04,MH,1731257519
454,huicheng,23.0385,116.2899,20.86,89,100,2.53,CN,1731257520
455,messaad,34.1543,3.5031,16.71,50,7,7.67,DZ,1731257521
456,kota belud,6.351,116.4305,25.27,91,38,1.29,MY,1731257523
457,ca mau,9.1769,105.15,24.01,96,36,1.76,VN,1731257524
458,la foa,-21.7108,165.8276,21.51,77,14,0.48,NC,1731257296
459,westport,41.1415,-73.3579,13.9,56,0,2.24,US,1731257418
460,san antonio de pale,-1.4014,5.6325,25.94,80,100,1.61,GQ,1731257527
461,flin flon,54.7682,-101.865,0.91,86,100,1.03,CA,1731257528
462,mana,5.6592,-53.7767,29.6,69,56,5.23,GF,1731257529
463,banda aceh,5.5577,95.3222,27.15,75,100,1.11,ID,1731257530
464,erdemli,36.605,34.3084,21.48,45,87,6.82,TR,1731257532
465,puerto quijarro,-17.7833,-57.7667,40.47,21,2,1.46,BO,1731257533
466,larroque,-33.036,-59.0013,33.59,16,0,5.22,AR,1731257534
467,nahiyat ash shinafiyah,31.5874,44.6602,25.56,27,61,3.65,IQ,1731257535
468,malango,-2.9627,119.9001,18.87,98,21,1.11,ID,1731257536
469,beloyarskiy,63.7119,66.6722,-10.55,84,100,6.45,RU,1731257537
470,hilo,19.7297,-155.09,20.62,88,75,2.57,US,1731257538
471,esil,51.9556,66.4042,0.52,98,100,6.01,KZ,1731257539
472,mallapuram,11.9667,78.25,22.31,81,48,1.9,IN,1731257540
473,ketchikan,55.3422,-131.6461,7.26,65,100,9.26,US,1731257541
474,bayport,40.7384,-73.0507,15.1,56,75,4.63,US,1731257542
475,san andres,12.5847,-81.7006,31.01,70,40,2.06,CO,1731257545
476,stony plain,53.5334,-114.0021,-0.7,97,100,4.12,CA,1731257546
477,kolonia town,6.964,158.206,27.0,94,100,0.0,FM,1731257547
478,tocopilla,-22.092,-70.1979,21.47,64,37,2.94,CL,1731257548
479,ataq,14.5377,46.8319,22.97,40,11,3.08,YE,1731257549
480,sinfra,6.6167,-5.9167,28.33,58,98,1.29,CI,1731257550
481,mandalay,21.9747,96.0836,22.23,89,67,0.26,MM,1731257551
482,portel,-1.9356,-50.8211,36.89,32,44,1.94,BR,1731257553
483,rio grande,-32.035,-52.0986,21.75,62,0,5.56,BR,1731257422
484,lorengau,-2.0226,147.2712,27.08,79,42,1.52,PG,1731257555
485,le port,-20.9373,55.2919,25.98,98,20,2.0,RE,1731257556
486,lobujya,27.95,86.8167,-10.42,62,14,1.72,NP,1731257557
487,youkounkoun,12.5333,-13.1333,34.29,27,0,2.7,GN,1731257558
488,tolanaro,-25.0319,46.9987,26.04,78,20,11.83,MG,1731257559
489,ruidoso,33.3317,-105.673,12.08,32,0,3.09,US,1731257351
490,hirara,24.8,125.2833,25.15,88,75,5.14,JP,1731257561
491,romanovskaya,47.5426,42.0285,6.0,69,0,1.99,RU,1731257562
492,antsiranana,-12.2787,49.2917,26.02,82,19,4.37,MG,1731257563
493,lazaro cardenas,17.9583,-102.2,29.64,66,82,0.95,MX,1731257292
494,oum hadjer,13.2954,19.6966,30.27,20,100,3.07,TD,1731257565
495,moyynkum,44.2914,72.9469,5.8,73,0,3.87,KZ,1731257568
496,madalena,41.2162,-8.3345,17.53,98,100,1.1,PT,1731257569
497,daru,-9.0763,143.2092,25.74,85,100,4.66,PG,1731257570
498,bubaque,11.2833,-15.8333,29.92,48,0,1.58,GW,1731257571
499,new plymouth,-39.0667,174.0833,13.23,100,93,4.49,NZ,1731257572
500,agadez,19.75,10.25,22.46,21,0,3.11,NE,1731257573
501,brody,50.0879,25.1503,3.77,71,11,2.73,UA,1731257574
502,la romana,18.4273,-68.9728,28.2,89,75,5.14,DO,1731257575
503,kapa'a,22.0752,-159.319,24.18,95,100,6.69,US,1731257455
504,trincomalee,8.5711,81.2335,28.18,72,38,5.04,LK,1731257577
505,bonthe,7.5264,-12.505,27.77,74,56,4.55,SL,1731257346
506,zhangzhou,24.5133,117.6556,20.63,88,93,0.44,CN,1731257579
507,utete,-7.986,38.758,25.35,74,35,3.63,TZ,1731257581
508,ilukste,55.9775,26.2966,4.75,86,100,1.24,LV,1731257582
509,tual,-5.6667,132.75,27.94,81,47,4.9,ID,1731257030
510,zaigrayevo,51.8336,108.2703,-9.31,97,93,1.31,RU,1731257584
511,flying fish cove,-10.4217,105.6791,25.82,94,100,4.12,CX,1731257585
512,pacific grove,36.6177,-121.9166,14.68,92,98,1.79,US,1731257352
513,yangiyul,41.112,69.0471,9.48,55,75,1.44,UZ,1731257588
514,puerto leguizamo,-0.1934,-74.7819,23.43,98,100,0.29,CO,1731257589
515,aykhal,66.0,111.5,-13.95,96,98,3.35,RU,1731257590
516,sade,11.3595,10.6732,26.81,22,60,3.36,NG,1731257591
517,kiama,-34.6833,150.8667,15.88,80,100,2.94,AU,1731257593
518,sao gabriel da cachoeira,-0.1303,-67.0892,25.89,89,75,1.54,BR,1731257594
519,sungai raya,0.7,108.9,26.39,86,100,1.91,ID,1731257595
520,puchezh,56.9788,43.1676,2.87,79,100,4.78,RU,1731257596
521,kilindoni,-7.9139,39.6668,26.87,75,1,5.61,TZ,1731257597
522,yen vinh,18.6667,105.6667,21.59,72,82,0.92,VN,1731257598
523,matoury,4.8483,-52.3317,31.98,66,75,3.6,GF,1731257599
524,kavieng,-2.5744,150.7967,27.73,77,100,5.38,PG,1731257035
525,coquimbo,-29.9533,-71.3436,18.85,68,75,5.14,CL,1731257356
526,scarborough,54.2797,-0.4044,9.81,69,90,1.34,GB,1731257602
527,batticaloa,7.7102,81.6924,26.53,81,26,4.31,LK,1731257603
528,junin de los andes,-39.9504,-71.0694,10.95,52,37,9.36,AR,1731257604
529,nasiriyah,31.0521,46.261,26.36,28,87,0.8,IQ,1731257605
530,lubang,13.8584,120.124,28.54,79,100,6.18,PH,1731257579
531,srandakan,-7.9386,110.2506,26.61,87,100,0.98,ID,1731257608
532,severo-yeniseyskiy,60.3725,93.0408,-9.01,86,100,3.03,RU,1731257609
533,siasi,5.5462,120.8145,27.62,77,99,2.14,PH,1731257610
534,fale old settlement,-9.3852,-171.2468,28.07,72,96,5.23,TK,1731257611
535,portland,45.5234,-122.6762,10.35,92,75,0.0,US,1731257444
536,chebba,35.2372,11.115,20.91,67,60,2.44,TN,1731257613
537,constantia,44.1833,28.65,7.38,77,99,9.38,RO,1731257614
538,san patricio,28.017,-97.5169,26.97,70,71,3.93,US,1731257615
539,jinxiang,27.4327,120.6062,19.89,91,100,3.2,CN,1731257616
540,khoyniki,51.8911,29.9552,2.56,93,6,2.45,BY,1731257617
541,tampere,61.4991,23.7871,0.06,99,100,2.06,FI,1731257618
542,kralendijk,12.15,-68.2667,29.99,74,20,2.57,BQ,1731257619
543,wagar,16.1525,36.2032,34.69,26,36,6.28,SD,1731257621
544,elista,46.3078,44.2558,4.29,87,0,4.0,RU,1731257622
545,koungheul,13.9833,-14.8,36.55,12,0,3.83,SN,1731257623
546,katsuren-haebaru,26.3369,127.8719,26.01,96,0,0.0,JP,1731257624
547,nizhniy kuranakh,58.8353,125.4869,-11.52,96,100,1.91,RU,1731257625
548,magadan,59.5667,150.8,-11.9,64,100,5.94,RU,1731257626
549,sawakin,19.1059,37.3321,30.03,70,6,2.4,SD,1731257627
550,cadale,2.7603,46.3222,27.28,79,75,4.31,SO,1731257628
551,whangarei,-35.7317,174.3239,15.46,97,95,1.88,NZ,1731257629
552,sarzeau,47.5333,-2.7667,14.82,73,66,2.41,FR,1731257630
553,cauto cristo,20.5574,-76.4702,30.6,60,29,3.78,CU,1731257631
554,saquarema,-22.92,-42.5103,23.48,62,34,4.49,BR,1731257420
555,mizhhirya,48.5246,23.5056,3.53,72,0,1.29,UA,1731257634
556,argo,37.6333,22.7333,11.7,64,1,2.68,GR,1731257636
557,ialoveni,46.9431,28.7778,6.16,78,100,3.6,MD,1731257637
558,puerto deseado,-47.7503,-65.8938,15.04,35,2,4.17,AR,1731257638
559,el porvenir,13.7617,-87.3458,27.31,78,56,2.18,HN,1731257639
560,al kharj,24.155,47.3346,25.32,28,30,4.42,SA,1731258638
561,popondetta,-8.7537,148.2534,22.73,95,96,1.31,PG,1731258640
562,christchurch,-43.5333,172.6333,7.17,94,100,1.03,NZ,1731258006
563,jacksonville beach,30.2947,-81.3931,26.73,82,100,6.17,US,1731258474
564,beledweyne,4.7358,45.2036,31.8,40,55,2.27,SO,1731258643
565,melekeok village,7.4957,134.6367,26.31,94,75,0.0,PW,1731258644
566,nuku'alofa,-21.1333,-175.2,23.19,88,40,3.6,TO,1731258645
567,merizo village,13.2658,144.6691,27.31,89,100,8.01,GU,1731258646
568,bure,10.7,37.0667,13.63,89,49,2.25,ET,1731258647
569,caleta de carquin,-11.0925,-77.6267,21.28,72,49,4.63,PE,1731258648
570,laojunmiao,39.8333,97.7333,3.4,60,96,0.61,CN,1731258651
571,hancheng,32.5186,112.3522,16.6,75,0,2.32,CN,1731258652
572,porto novo,6.4965,2.6036,28.06,69,47,3.41,BJ,1731258443
573,nishinoomote,30.7333,131.0,21.93,90,93,11.14,JP,1731258654
574,ryotsu-minato,38.0833,138.4333,14.33,54,100,1.35,JP,1731258406
575,maxixe,-23.8597,35.3472,24.54,83,21,6.52,MZ,1731258656
576,riverton,40.5219,-111.9391,11.33,46,0,4.47,US,1731258394
577,bodaybo,57.8506,114.1933,-14.58,95,100,0.95,RU,1731258658
578,nenjiang,49.1833,125.2167,-4.15,49,0,2.65,CN,1731258660
579,ta`u,-14.2336,-169.5144,27.19,83,100,8.66,AS,1731258661
580,banikoara,11.2985,2.4386,28.97,24,97,2.27,BJ,1731258662
581,angaur state,6.906,134.13,28.76,71,32,1.1,PW,1731258663
582,happy valley-goose bay,53.3168,-60.3315,2.82,55,83,5.2,CA,1731258664
583,borogontsy,62.6683,131.1683,-22.7,100,96,0.64,RU,1731258665
